City ID,City,Cloudiness,Country,Date,Humidity,Lat,Lng,Max Temp,Wind Speed
0,Bluff,0,NZ,1592509554,83,-46.6,168.33,3.89,1.34
1,Karpogory,81,RU,1592509554,63,64.0,44.45,12.8,1.98
2,Albany,39,US,1592509503,58,42.6,-73.97,31.11,0.45
3,Port Elizabeth,0,ZA,1592509554,82,-33.92,25.57,14.0,3.1
4,Ushuaia,24,AR,1592509554,64,-54.8,-68.3,2.0,3.33
5,Niihama,100,JP,1592509554,99,33.96,133.32,18.89,1.99
6,Arkadak,0,RU,1592509555,93,51.93,43.5,18.01,4.05
7,Geraldton,0,AU,1592509555,81,-28.77,114.6,11.0,2.6
8,Chui,26,UY,1592509414,78,-33.7,-53.46,17.01,6.19
9,Upernavik,0,GL,1592509393,82,72.79,-56.15,2.34,5.04
10,Mahébourg,75,MU,1592509555,68,-20.41,57.7,22.0,4.6
11,Kaitangata,39,NZ,1592509408,83,-46.28,169.85,4.95,4.55
12,Avarua,61,CK,1592509403,69,-21.21,-159.78,23.0,4.6
13,Cabo San Lucas,20,MX,1592509556,40,22.89,-109.91,34.0,3.6
14,Jati,16,PK,1592509556,82,24.35,68.27,29.89,5.59
15,Chernyshevskiy,100,RU,1592509556,70,63.01,112.47,12.37,0.5
16,Punta Arenas,90,CL,1592509376,80,-53.15,-70.92,5.0,5.7
17,Carnarvon,0,AU,1592509556,72,-24.87,113.63,15.0,5.1
18,Grand Gaube,98,MU,1592509556,79,-20.01,57.66,20.56,3.13
19,Terrace,90,CA,1592509557,87,54.52,-128.6,14.0,3.1
20,Prince Rupert,90,CA,1592509485,93,54.32,-130.32,14.0,7.7
21,Yatou,80,CN,1592509557,82,37.15,122.38,19.52,2.35
22,Buala,1,SB,1592509439,79,-8.14,159.59,26.86,1.94
23,Busselton,51,AU,1592509392,97,-33.65,115.33,5.0,1.53
24,Virginia Beach,75,US,1592509294,65,36.85,-75.98,26.67,5.7
25,Ponta do Sol,20,PT,1592509557,73,32.67,-17.1,22.0,3.6
26,Atuona,20,PF,1592509390,76,-9.8,-139.03,26.72,5.0
27,Mataura,0,NZ,1592509558,83,-46.19,168.86,3.89,1.34
28,Ancud,75,CL,1592509558,87,-41.87,-73.82,11.0,7.7
29,Seabra,24,BR,1592509558,64,-12.42,-41.77,21.55,3.95
30,Nikolskoye,75,RU,1592509558,72,59.7,30.79,20.0,2.0
31,Bredasdorp,0,ZA,1592509558,87,-34.53,20.04,9.0,2.13
32,Mitú,64,CO,1592509341,80,1.2,-70.17,28.56,0.77
33,Cape Town,0,ZA,1592509264,58,-33.93,18.42,16.67,4.6
34,Iqaluit,90,CA,1592509378,74,63.75,-68.51,6.0,5.1
35,Aitape,0,PG,1592509431,82,-3.14,142.35,25.61,1.78
36,Rikitea,100,PF,1592509559,85,-23.12,-134.97,24.45,7.26
37,Jamestown,75,US,1592509559,54,42.1,-79.24,27.0,4.1
38,Bengkulu,97,ID,1592509422,89,-3.8,102.27,24.42,1.94
39,Oodweyne,4,SO,1592509560,57,9.41,45.06,23.28,5.11
40,Hirara,100,JP,1592509560,84,24.8,125.28,28.74,10.24
41,Mfou,20,CM,1592509560,94,3.72,11.64,23.0,1.0
42,Cairns,90,AU,1592509546,94,-16.92,145.77,21.11,5.1
43,Vaini,20,TO,1592509561,83,-21.2,-175.2,21.0,4.1
44,El Carmen,50,CO,1592509561,73,8.51,-73.45,27.69,1.0
45,Nola,0,IT,1592509561,73,40.92,14.53,21.11,2.1
46,Kapaa,90,US,1592509561,94,22.08,-159.32,25.0,6.7
47,São Filipe,0,CV,1592509562,63,14.9,-24.5,26.97,6.69
48,Motygino,100,RU,1592509562,58,58.18,94.76,13.58,2.41
49,Lagoa,0,PT,1592509562,88,39.05,-27.98,18.33,5.21
50,Semey,87,KZ,1592509450,74,50.41,80.23,17.46,1.6
51,Butaritari,100,KI,1592509562,63,3.07,172.79,28.37,2.71
52,Samarai,58,PG,1592509446,83,-10.62,150.67,26.2,7.26
53,Barrow,1,US,1592509341,65,71.29,-156.79,8.0,3.6
54,Townsville,20,AU,1592509563,82,-19.25,146.8,19.0,3.1
55,Qaanaaq,0,GL,1592509405,85,77.48,-69.36,1.81,0.68
56,Osypenko,77,UA,1592509563,100,46.91,36.83,24.44,5.36
57,Hong Kong,100,HK,1592509437,74,22.29,114.16,28.89,1.79
58,Saskylakh,16,RU,1592509398,58,71.92,114.08,18.54,2.13
59,Longyearbyen,75,SJ,1592509364,65,78.22,15.64,7.0,3.6
60,Langsa,99,ID,1592509564,87,4.47,97.97,23.7,1.02
61,Omboué,80,GA,1592509321,90,-1.57,9.26,22.69,3.16
62,Antofagasta,40,CL,1592509295,82,-23.65,-70.4,16.0,6.7
63,Saint George,1,US,1592509457,12,37.1,-113.58,30.0,4.1
64,Ribeira Grande,75,PT,1592509564,88,38.52,-28.7,18.0,4.1
65,Hilo,20,US,1592509564,65,19.73,-155.09,27.0,3.89
66,Mehamn,75,NO,1592509396,81,71.04,27.85,8.0,10.8
67,Sitka,90,US,1592509565,93,57.05,-135.33,12.0,4.1
68,Balasore,100,IN,1592509565,76,21.49,86.93,28.4,4.51
69,Farmington,1,US,1592509314,12,36.73,-108.22,28.0,4.6
70,Mangan,100,IN,1592509565,59,27.52,88.53,24.83,0.83
71,Bethel,40,US,1592509565,57,41.37,-73.41,27.22,5.1
72,Järvenpää,0,FI,1592509565,77,60.47,25.09,21.11,2.1
73,New Norfolk,100,AU,1592509565,85,-42.78,147.06,5.0,0.97
74,Port Alfred,0,ZA,1592509566,79,-33.59,26.89,13.89,3.13
75,Thompson,90,CA,1592509562,93,55.74,-97.86,3.0,5.1
76,Inírida,34,CO,1592509566,89,3.87,-67.92,26.69,1.81
77,Katsuura,75,JP,1592509566,93,35.13,140.3,20.0,3.1
78,Sydney,20,AU,1592509463,93,-33.87,151.21,9.44,2.6
79,Urubichá,71,BO,1592509566,39,-15.38,-62.95,31.49,2.33
80,Nakonde,0,ZM,1592509566,86,-9.34,32.74,11.24,3.51
81,Severo-Kuril'sk,82,RU,1592509567,86,50.68,156.12,5.81,3.94
82,Maţāy,0,EG,1592509567,41,28.42,30.78,25.79,7.48
83,Adrar,56,MR,1592509567,14,20.5,-10.07,38.57,6.37
84,Medicine Hat,75,CA,1592509567,58,50.05,-110.67,13.89,5.1
85,Khatanga,22,RU,1592509434,56,71.97,102.5,11.99,4.57
86,Grindavik,75,IS,1592509567,81,63.84,-22.43,10.0,10.8
87,Serebryansk,0,KZ,1592509568,76,49.69,83.29,10.72,1.92
88,Leningradskiy,83,RU,1592509451,60,69.38,178.42,6.99,2.42
89,Sinaloa,0,MX,1592509359,34,25.0,-107.5,36.67,2.24
90,Faya,20,SA,1592509568,44,18.39,42.45,26.0,1.31
91,Saint Paul Harbor,90,US,1592509568,87,57.79,-152.41,10.0,4.6
92,Salinópolis,80,BR,1592509451,83,-0.61,-47.36,27.33,4.91
93,Storforshei,0,NO,1592509569,59,66.4,14.52,17.0,3.1
94,Erdenet,90,MN,1592509436,88,49.03,104.08,12.18,0.32
95,Kavaratti,97,IN,1592509458,80,10.57,72.64,28.96,7.08
96,Paamiut,88,GL,1592509569,84,61.99,-49.67,3.77,5.36
97,Šilutė,48,LT,1592509569,91,55.35,21.48,20.67,2.77
98,Port Hardy,90,CA,1592509562,82,50.7,-127.42,15.0,2.1
99,Hofn,0,IS,1592509438,84,64.25,-15.21,9.45,1.49
100,Mar del Plata,75,AR,1592509570,82,-38.0,-57.56,15.0,4.6
101,Alofi,49,NU,1592509570,73,-19.06,-169.92,23.0,7.7
102,Mitsamiouli,0,KM,1592509480,62,-11.38,43.28,25.26,5.75
103,Pareora,99,NZ,1592509570,88,-44.49,171.21,6.11,1.34
104,Kondinskoye,46,RU,1592509570,66,59.65,67.41,5.86,3.63
105,Provideniya,4,RU,1592509570,58,64.38,-173.3,14.0,2.0
106,Yerbogachën,96,RU,1592509376,59,61.28,108.01,12.48,0.78
107,Tessalit,0,ML,1592509483,8,20.2,1.01,37.41,4.63
108,Zhongshu,100,CN,1592509571,93,24.52,103.77,18.09,0.8
109,Beroroha,0,MG,1592509405,51,-21.67,45.17,17.85,3.51
110,Tasiilaq,100,GL,1592509571,75,65.61,-37.64,6.0,21.1
111,Beloha,2,MG,1592509571,81,-25.17,45.05,17.68,6.4
112,Hithadhoo,100,MV,1592509411,77,-0.6,73.08,29.11,4.21
113,Dingle,100,PH,1592509572,92,11.0,122.67,24.34,2.51
114,Arrondissement du Havre,75,FR,1592509572,77,49.58,0.33,17.0,3.1
115,Yellowknife,20,CA,1592509425,62,62.46,-114.35,17.78,7.2
116,Lloydminster,75,CA,1592509406,44,53.28,-110.0,15.0,3.6
117,Cayenne,75,GF,1592509573,83,4.93,-52.33,28.0,4.11
118,Port Blair,88,IN,1592509573,84,11.67,92.75,28.24,5.75
119,Chauk,90,MM,1592509573,80,20.88,94.82,25.95,8.21
120,Balotra,90,IN,1592509573,43,25.83,72.23,35.11,9.84
121,Arraial do Cabo,10,BR,1592509417,64,-22.97,-42.03,24.0,7.2
122,Mizdah,0,LY,1592509573,13,31.45,12.98,32.04,3.06
123,Kanniyākumāri,64,IN,1592509510,78,8.08,77.57,27.91,7.46
124,Bethal,0,ZA,1592509574,94,-26.46,29.47,3.33,2.34
125,Mossamedes,0,AO,1592509574,71,-15.2,12.15,21.86,1.31
126,Puri,75,IN,1592509389,94,19.8,85.85,28.0,3.1
127,The Valley,40,AI,1592509574,66,18.22,-63.06,32.0,7.2
128,Kloulklubed,100,PW,1592509574,78,7.04,134.26,28.83,5.52
129,Udachny,26,RU,1592509406,58,66.42,112.4,13.0,3.0
130,Bambous Virieux,75,MU,1592509419,68,-20.34,57.76,22.0,4.6
131,Harmanli,91,BG,1592509297,89,41.93,25.9,20.56,0.2
132,Birobidzhan,3,RU,1592509575,92,48.8,132.95,8.55,1.13
133,Teguise,20,ES,1592509575,64,29.06,-13.56,24.0,7.7
134,Half Moon Bay,1,US,1592509372,55,37.46,-122.43,32.22,4.6
135,Yangi Marg`ilon,12,UZ,1592509575,40,40.43,71.72,21.0,2.1
136,Nānākuli,90,US,1592509576,83,21.39,-158.15,26.0,2.6
137,Na Wa,75,TH,1592509576,85,17.49,104.1,24.93,1.33
138,Saint-Ambroise,20,CA,1592509576,23,48.55,-71.33,36.11,6.2
139,Kruisfontein,0,ZA,1592509576,44,-34.0,24.73,13.91,2.9
140,Hobart,100,AU,1592509576,93,-42.88,147.33,2.22,1.5
141,Malye Derbety,100,RU,1592509359,32,47.95,44.68,24.17,2.57
142,Nara,100,JP,1592509576,98,34.69,135.8,18.33,3.91
143,Nelson Bay,75,AU,1592509328,100,-32.72,152.15,10.0,2.1
144,Hermanus,0,ZA,1592509577,75,-34.42,19.23,10.56,0.45
145,Srednekolymsk,25,RU,1592509577,24,67.45,153.68,26.71,0.59
146,Olafsvik,100,IS,1592509577,75,64.89,-23.71,9.67,6.85
147,Nhulunbuy,83,AU,1592509577,81,-12.23,136.77,25.24,6.54
148,Kodinsk,0,RU,1592509577,67,58.69,99.18,11.3,2.85
149,Tuktoyaktuk,90,CA,1592509578,93,69.45,-133.04,7.0,4.6
150,Saint-Philippe,40,RE,1592509399,68,-21.36,55.77,22.0,5.7
151,Puerto Ayora,64,EC,1592509578,51,-0.74,-90.35,29.0,4.1
152,Touros,90,BR,1592509478,94,-5.2,-35.46,24.0,4.1
153,Isangel,20,VU,1592509425,100,-19.55,169.27,19.0,5.53
154,Doumé,100,CM,1592509578,95,4.23,13.45,21.14,1.17
155,George Town,20,MY,1592509399,79,5.41,100.34,29.0,1.5
156,Sri Aman,100,MY,1592509578,100,1.24,111.46,25.0,0.61
157,Kulhudhuffushi,100,MV,1592509376,78,6.62,73.07,28.98,4.85
158,Sirte,0,LY,1592509579,30,31.21,16.59,29.47,7.54
159,Vila,2,PT,1592509579,67,42.03,-8.16,17.22,4.1
160,Lebu,100,CL,1592509579,91,-37.62,-73.65,12.19,7.43
161,Moskovskiy,80,RU,1592509579,69,55.6,37.35,24.44,3.0
162,Hambantota,55,LK,1592509579,94,6.12,81.12,27.0,3.1
163,Faanui,100,PF,1592509411,79,-16.48,-151.75,26.51,1.63
164,Malbork,88,PL,1592509580,100,54.04,19.03,18.89,0.5
165,Cidreira,89,BR,1592509402,80,-30.18,-50.21,21.53,3.41
166,Svetlaya,99,RU,1592509580,87,46.54,138.33,10.21,2.22
167,Charters Towers,0,AU,1592509580,93,-20.1,146.27,14.07,4.05
168,Corpus Christi,75,US,1592509580,83,27.8,-97.4,30.0,4.1
169,La Ronge,75,CA,1592509581,41,55.1,-105.28,14.0,5.1
170,Santo Amaro da Imperatriz,20,BR,1592509581,73,-27.69,-48.78,24.44,6.7
171,Evensk,75,RU,1592509307,79,61.95,159.23,10.81,2.05
172,Kamennogorsk,0,RU,1592509581,83,60.95,29.13,22.0,1.0
173,Port Lincoln,73,AU,1592509581,48,-34.73,135.87,15.38,8.69
174,Dunedin,83,NZ,1592509581,75,-45.87,170.5,6.67,4.02
175,Mananara,100,MG,1592509581,80,-16.17,49.77,21.56,5.39
176,Tomatlán,0,MX,1592509582,39,19.93,-105.25,33.04,4.91
177,Vardø,39,NO,1592509582,81,70.37,31.11,7.0,7.2
178,Challans,94,FR,1592509582,81,46.84,-1.87,16.11,4.59
179,Anloga,20,GH,1592509582,83,5.79,0.9,27.0,3.6
180,Manokwari,11,ID,1592509582,69,-0.87,134.08,26.44,2.05
181,Bandarbeyla,99,SO,1592509582,73,9.49,50.81,26.95,13.63
182,Honiara,20,SB,1592509583,100,-9.43,159.95,22.0,1.5
183,Río Gallegos,90,AR,1592509583,93,-51.62,-69.22,4.0,2.6
184,Beibei,84,CN,1592509583,69,29.83,106.43,25.0,2.0
185,Torbay,90,CA,1592509409,60,47.67,-52.73,20.56,5.1
186,Ko Samui,97,TH,1592509583,77,9.54,99.94,28.78,6.51
187,Tiksi,100,RU,1592509584,76,71.69,128.87,11.13,2.54
188,Castro,100,BR,1592509584,80,-24.79,-50.01,17.29,2.54
189,Nuuk,75,GL,1592509584,75,64.18,-51.72,6.0,5.7
190,Kavieng,31,PG,1592509584,72,-2.57,150.8,28.04,1.83
191,Ýpsonas,20,CY,1592509584,83,34.69,32.96,23.33,7.2
192,Altay,55,CN,1592509584,50,47.87,88.12,13.39,2.48
193,Peremyshl',26,RU,1592509585,82,54.26,36.16,20.0,1.41
194,Abu Kamal,0,SY,1592509585,25,34.45,40.92,29.57,7.94
195,Esperance,40,AU,1592509434,93,-33.87,121.9,8.0,5.1
196,Mahanje,5,TZ,1592509585,89,-9.93,35.33,13.12,0.81
197,Buluang,8,PH,1592509585,87,13.31,123.34,25.64,1.61
198,Leh,27,IN,1592509585,43,34.17,77.58,11.08,2.67
199,Makakilo City,90,US,1592509443,83,21.35,-158.09,26.0,2.6
200,Talnakh,84,RU,1592509482,70,69.49,88.4,7.0,5.0
201,Vung Tau,98,VN,1592509586,81,10.35,107.08,27.91,3.02
202,Poum,100,NC,1592509447,75,-20.23,164.02,23.53,6.4
203,Haines Junction,100,CA,1592509390,49,60.75,-137.51,15.47,1.73
204,Juneau,90,US,1592509385,87,58.3,-134.42,12.0,2.1
205,Cherskiy,0,RU,1592509586,36,68.75,161.3,21.03,3.68
206,Seredka,0,RU,1592509587,73,58.16,28.19,23.0,1.0
207,Lavrentiya,0,RU,1592509433,61,65.58,-171.0,10.26,1.97
208,Tautira,40,PF,1592509587,88,-17.73,-149.15,26.0,2.1
209,San Quintín,0,MX,1592509587,61,30.48,-115.95,19.42,5.6
210,Manadhoo,29,MV,1592509587,75,5.77,73.38,28.85,3.39
211,Abbeville,44,FR,1592509588,76,50.1,1.83,16.67,0.47
212,Goderich,0,CA,1592509561,67,43.75,-81.72,23.89,3.78
213,Kilinochchi,95,LK,1592509588,80,9.4,80.4,27.64,5.16
214,Scărişoara,75,RO,1592509588,73,44.0,24.57,22.0,2.1
215,Siguiri,96,GN,1592509588,62,11.67,-9.5,29.53,2.99
216,Dikson,93,RU,1592509588,94,73.51,80.55,0.72,7.23
217,Saldanha,0,ZA,1592509588,54,-33.01,17.94,15.0,2.1
218,Oriximiná,98,BR,1592509589,63,-1.77,-55.87,30.41,2.72
219,Barcelos,0,PT,1592509370,77,41.54,-8.62,18.33,6.2
220,Hay River,20,CA,1592509589,49,60.82,-115.8,21.0,7.7
221,Flinders,12,AU,1592509589,87,-34.58,150.86,10.0,0.45
222,Chicama,12,PE,1592509589,61,-7.84,-79.15,22.42,4.56
223,Pacific Grove,1,US,1592509415,33,36.62,-121.92,28.89,2.6
224,Pisco,75,PE,1592509590,68,-13.7,-76.22,20.0,3.1
225,Shingū,100,JP,1592509590,98,33.73,135.98,19.42,1.71
226,Kenai,40,US,1592509590,55,60.55,-151.26,16.0,2.1
227,Havelock,75,US,1592509437,51,34.88,-76.9,28.0,5.1
228,Havøysund,75,NO,1592509482,75,71.0,24.66,7.0,5.7
229,East London,0,ZA,1592509590,62,-33.02,27.91,17.8,6.26
230,Ararat,75,AM,1592509590,43,39.83,44.7,22.0,4.1
231,Halifax,0,CA,1592509364,35,44.65,-63.57,28.33,0.45
232,Bathsheba,40,BB,1592509451,70,13.22,-59.52,31.0,8.7
233,Lüderitz,0,NA,1592509591,22,-26.65,15.16,24.0,4.1
234,Kharan,0,PK,1592509591,10,28.58,65.42,32.29,2.66
235,Vila Velha,17,BR,1592509452,73,-20.33,-40.29,24.0,2.6
236,Shubarshi,87,KZ,1592509591,55,48.59,57.19,21.73,3.93
237,Zemetchino,2,RU,1592509591,90,53.5,42.62,16.74,4.19
238,Bullhead City,5,US,1592509592,8,35.15,-114.57,38.33,8.2
239,Tal'menka,87,RU,1592509592,59,53.82,83.57,16.0,3.0
240,Laas,40,IT,1592509592,81,46.62,10.7,11.0,4.1
241,Pandan,0,PH,1592509592,84,14.05,124.17,26.8,3.2
242,Prado,12,BR,1592509592,89,-17.34,-39.22,22.83,4.71
243,Santa María del Río,75,MX,1592509592,28,21.8,-100.75,28.0,4.1
244,Westport,1,US,1592509335,73,41.14,-73.36,25.56,3.6
245,Votkinsk,0,RU,1592509593,75,57.05,53.99,11.11,0.42
246,Niğde,54,TR,1592509593,73,37.83,34.75,13.89,0.71
247,Nuevo Progreso,59,MX,1592509593,55,23.17,-97.95,32.78,2.68
248,Kununurra,0,AU,1592509442,39,-15.77,128.73,17.0,2.6
249,Clyde River,90,CA,1592509439,88,70.47,-68.59,1.0,4.6
250,Minna,20,NG,1592509454,83,9.61,6.56,26.0,2.1
251,Bontang,100,ID,1592509593,87,0.13,117.5,25.42,1.85
252,Tuatapere,21,NZ,1592509460,83,-46.13,167.68,3.89,1.34
253,Grafton,75,US,1592509320,48,42.21,-71.69,30.56,4.1
254,Najrān,40,SA,1592509594,14,17.49,44.13,31.0,1.31
255,San Andrés,40,CO,1592509594,66,12.58,-81.7,31.0,4.6
256,Pierre,20,US,1592509397,53,44.37,-100.35,22.78,3.6
257,Panguna,0,PG,1592509594,99,-6.32,155.48,20.1,0.5
258,Hokitika,100,NZ,1592509594,61,-42.72,170.97,9.82,4.2
259,Dandong,99,CN,1592509595,93,40.13,124.39,16.99,1.21
260,Meulaboh,78,ID,1592509595,84,4.14,96.13,25.58,2.24
261,Belmonte,75,BR,1592509595,94,-15.86,-38.88,22.0,1.5
262,Kumul,32,CN,1592509595,21,42.8,93.45,27.79,8.28
263,Mahon,0,ES,1592509595,73,39.89,4.27,21.0,2.1
264,San Jerónimo,16,PE,1592509595,39,-11.95,-75.28,17.57,1.49
265,Lagunas,3,PE,1592509595,42,-5.23,-75.68,34.01,0.51
266,Jutaí,99,BR,1592509596,87,-5.18,-68.9,27.76,0.72
267,Quelimane,75,MZ,1592509596,83,-17.88,36.89,21.0,3.1
268,Mana,90,GF,1592509596,90,5.66,-53.78,25.92,5.6
269,San Patricio,20,MX,1592509442,74,19.22,-104.7,30.0,5.1
270,Lompoc,0,US,1592509596,64,34.64,-120.46,21.11,6.2
271,Bay Roberts,100,CA,1592509596,100,47.6,-53.26,19.44,0.45
272,Klaksvík,98,FO,1592509423,100,62.23,-6.59,9.0,3.6
273,Santa Rosa,75,PH,1592509596,78,14.31,121.11,28.0,1.5
274,Cabinda,100,AO,1592509597,88,-5.55,12.2,23.3,3.42
275,Jumla,52,NP,1592509597,71,29.27,82.18,15.8,0.56
276,Rio Grande,75,BR,1592509515,88,-32.03,-52.1,18.0,0.5
277,Husavik,75,IS,1592509597,54,66.04,-17.34,14.0,2.1
278,Lorengau,45,PG,1592509597,78,-2.02,147.27,27.94,3.97
279,Kilindoni,0,TZ,1592509597,74,-7.91,39.67,26.4,10.07
280,Karratha,0,AU,1592509439,55,-20.74,116.85,20.42,1.5
281,Shakawe,0,BW,1592509598,51,-18.37,21.85,12.31,2.9
282,Ayan,75,RU,1592509598,93,56.45,138.17,6.02,2.41
283,Sironj,73,IN,1592509598,49,24.1,77.7,29.25,3.64
284,Ilebo,26,CD,1592509598,49,-4.32,20.58,20.4,0.38
285,Kologriv,0,RU,1592509598,77,58.83,44.32,11.61,2.25
286,Venado Tuerto,57,AR,1592509598,40,-33.75,-61.97,17.78,2.68
287,Taltal,33,CL,1592509598,51,-25.4,-70.48,19.51,3.59
288,Petauke,48,ZM,1592509599,76,-14.24,31.33,14.51,3.73
289,Narsaq,40,GL,1592509599,61,60.92,-46.05,8.0,4.1
290,Sekoma,0,BW,1592509599,51,-24.4,23.88,10.02,3.53
291,Westerland,78,DE,1592509599,68,54.91,8.3,20.0,3.1
292,Uglekamensk,91,RU,1592509599,91,43.22,133.23,12.68,0.26
293,Seymchan,100,RU,1592509599,38,62.88,152.43,20.64,0.96
294,Gold Coast,40,AU,1592509577,93,-28.0,153.43,15.0,3.6
295,Vao,89,NC,1592509301,78,-22.67,167.48,22.04,6.73
296,Coahuayana Viejo,40,MX,1592509458,55,18.73,-103.68,31.0,5.1
297,Tabou,98,CI,1592509600,80,4.42,-7.35,25.46,1.83
298,Strunino,90,RU,1592509600,96,56.38,38.57,18.4,2.29
299,Nabire,67,ID,1592509600,87,-3.37,135.48,24.95,1.18
300,Kremenki,0,RU,1592509600,82,54.88,37.13,23.89,1.6
301,Karoi,24,ZW,1592509600,77,-16.81,29.69,11.01,1.48
302,Grand-Santi,90,GF,1592509601,93,4.25,-54.38,27.23,1.96
303,Lakes Entrance,46,AU,1592509601,75,-37.88,147.98,8.63,2.32
304,Kenora,75,CA,1592509464,73,49.82,-94.43,24.0,5.1
305,Mt. Pleasant,1,US,1592509601,74,32.79,-79.86,27.22,4.6
306,Askiz,100,RU,1592509601,87,53.13,90.53,12.57,4.27
307,Airai,84,TL,1592509601,100,-8.93,125.41,14.61,1.84
308,Presidencia Roque Sáenz Peña,8,AR,1592509601,53,-26.79,-60.44,25.56,2.24
309,Goiatuba,1,BR,1592509602,60,-18.01,-49.35,23.59,1.78
310,Thabazimbi,0,ZA,1592509602,50,-24.59,27.41,10.87,1.92
311,Cururupu,52,BR,1592509602,93,-1.83,-44.87,25.83,1.95
312,Saýat,0,TM,1592509602,30,38.78,63.88,22.0,3.1
313,Semnan,0,IR,1592509602,15,35.57,53.4,29.11,4.12
314,Yamada,100,JP,1592509602,75,39.47,141.95,17.61,1.21
315,Örnsköldsvik,5,SE,1592509603,64,63.29,18.72,21.0,2.6
316,Bor,5,RU,1592509603,100,56.36,44.07,16.11,3.15
317,Shitanjing,96,CN,1592509603,21,39.23,106.34,25.56,1.34
318,Rome,1,US,1592509445,35,43.21,-75.46,31.0,2.6
319,Mount Gambier,82,AU,1592509603,71,-37.83,140.77,11.0,7.7
320,Baní,40,DO,1592509603,59,18.28,-70.33,33.0,7.2
321,Loíza,40,PR,1592509603,62,18.43,-65.88,32.0,8.2
322,Beringovskiy,0,RU,1592509604,55,63.05,179.32,9.82,0.28
323,Broome,75,US,1592509401,57,42.25,-75.83,27.22,3.6
324,Sergeevka,0,KZ,1592509604,75,53.88,67.42,7.5,3.2
325,Östersund,0,SE,1592509604,43,63.18,14.64,21.0,4.1
326,Pittsburg,1,US,1592509456,16,38.03,-121.88,33.33,2.6
327,Stornoway,48,GB,1592509604,77,58.21,-6.39,18.33,4.1
328,Waipawa,100,NZ,1592509604,100,-41.41,175.52,11.67,10.8
329,Nome,1,US,1592509499,67,64.5,-165.41,17.78,5.1
330,San Miguel de Tucumán,17,AR,1592509503,28,-26.82,-65.22,22.0,2.6
331,Chapais,1,CA,1592509605,22,49.78,-74.85,33.0,5.7
332,Mutoko,23,ZW,1592509605,94,-17.4,32.23,10.0,2.2
333,Bluefields,40,NI,1592509605,74,12.01,-83.76,30.0,4.1
334,Pochutla,90,MX,1592509326,83,15.74,-96.47,26.0,1.65
335,Rutana Province,41,BI,1592509605,72,-3.87,30.1,14.46,1.38
336,Boyolangu,50,ID,1592509606,88,-8.12,111.89,24.36,3.42
337,Yucca Valley,0,US,1592509315,20,34.11,-116.43,31.67,1.34
338,Mastic Beach,75,US,1592509606,73,40.77,-72.85,24.44,3.1
339,Asău,36,RO,1592509606,93,46.43,26.4,17.22,1.55
340,Lata,0,PT,1592509478,74,40.16,-8.33,18.89,2.42
341,Sisimiut,45,GL,1592509523,67,66.94,-53.67,5.47,6.35
342,Carbonia,40,IT,1592509606,83,39.17,8.52,23.33,3.6
343,Sumter,70,US,1592509606,56,28.71,-82.08,32.78,1.34
344,Salalah,20,OM,1592509474,89,17.02,54.09,29.0,2.1
345,Rawson,100,AR,1592509607,43,-43.3,-65.1,15.25,10.67
346,Kiryat Gat,1,IL,1592509607,77,31.61,34.76,23.89,2.8
347,Huilong,35,CN,1592509607,90,31.81,121.66,23.89,0.89
348,Caravelas,3,BR,1592509607,89,-17.71,-39.25,22.5,3.72
349,Fort Nelson,40,CA,1592509312,60,58.81,-122.7,21.0,1.5
350,Aragarças,3,BR,1592509608,52,-15.9,-52.25,31.0,2.6
351,Kinkala,31,CG,1592509608,83,-4.36,14.76,24.0,0.87
352,Kirkuk,0,IQ,1592509608,15,35.47,44.39,31.37,6.77
353,Ebenthal,90,AT,1592509608,77,46.61,14.36,17.0,1.0
354,Rundu,0,NA,1592509608,46,-17.93,19.77,12.29,2.84
355,Crotone,0,IT,1592509459,64,39.09,17.12,21.98,1.59
356,Vammala,0,FI,1592509609,63,61.33,22.9,19.0,2.6
357,Kosovo Polje,40,XK,1592509609,72,42.64,21.1,18.0,5.7
358,Verkhnetulomskiy,40,RU,1592509609,66,68.61,31.8,9.0,2.0
359,Zholymbet,93,KZ,1592509609,72,51.74,71.71,9.5,4.1
360,Ugoofaaru,21,MV,1592509609,76,5.67,73.0,28.85,3.78
361,Koz'modem'yansk,0,RU,1592509609,51,56.34,46.57,15.0,2.0
362,Yining,99,CN,1592509609,93,29.04,114.56,22.23,1.0
363,Macomb,1,US,1592509442,37,40.46,-90.67,30.56,4.6
364,Kingman,1,US,1592509610,12,35.19,-114.05,33.33,4.1
365,Moctezuma,0,MX,1592509610,12,29.8,-109.67,37.27,8.23
366,Okha,100,RU,1592509409,97,53.57,142.95,4.22,4.07
367,Fortuna,20,US,1592509610,77,40.6,-124.16,18.0,5.7
368,Córdoba,87,AR,1592509550,22,-31.41,-64.18,21.0,4.6
369,St. George's,40,GD,1592509610,74,12.06,-61.75,29.0,6.7
370,Bilibino,0,RU,1592509611,37,68.05,166.44,20.61,2.28
371,Kaeo,0,NZ,1592509611,3,-35.1,173.78,7.78,0.45
372,Sokone,0,SN,1592509611,59,13.88,-16.37,33.0,5.1
373,Vestmanna,83,FO,1592509440,100,62.16,-7.17,9.0,3.6
374,Souillac,75,MU,1592509611,68,-20.52,57.52,22.0,4.6
375,Zhangye,89,CN,1592509611,24,38.93,100.45,22.25,0.99
376,Kushima,88,JP,1592509611,100,31.46,131.23,23.89,4.92
377,Trincomalee,98,LK,1592509612,77,8.57,81.23,28.16,7.52
378,Ozinki,99,RU,1592509612,78,51.18,49.68,18.13,6.11
379,Tokur,89,RU,1592509612,87,53.13,132.9,5.51,1.25
380,Luzhou,68,CN,1592509612,78,28.87,105.44,22.06,1.04
381,Margate,83,GB,1592509612,76,51.38,1.39,16.67,1.34
382,Mandalgovi,99,MN,1592509612,37,45.76,106.27,19.76,3.78
383,Catherinas Lust,43,GY,1592509612,78,6.4,-57.6,27.99,3.84
384,Venice,20,US,1592508978,55,27.1,-82.45,31.67,4.6
385,Codrington,100,AU,1592509613,75,-38.27,141.97,10.86,7.28
386,Chokurdakh,70,RU,1592509613,39,70.63,147.92,24.4,4.04
387,Douala,40,CM,1592509427,94,4.05,9.7,26.0,0.59
388,Ikalamavony,4,MG,1592509613,75,-21.15,46.58,11.68,3.55
389,Beyneu,0,KZ,1592509613,19,45.32,55.2,29.12,3.18
390,San Lazaro,90,BZ,1592509613,88,18.04,-88.66,30.0,2.62
391,San Ramon,1,US,1592509471,12,37.78,-121.98,33.33,2.6
392,Norman Wells,75,CA,1592509430,40,65.28,-126.83,23.0,4.1
393,Shache,4,CN,1592509614,31,38.42,77.24,22.07,7.44
394,Shenjiamen,100,CN,1592509614,93,29.96,122.3,21.55,5.68
395,Henties Bay,0,NA,1592509614,48,-22.12,14.28,22.78,3.91
396,Vidim,0,RU,1592509614,74,56.41,103.11,9.11,3.17
397,Yar-Sale,65,RU,1592509447,73,66.83,70.83,3.74,5.01
398,Tahe,100,CN,1592509614,86,52.33,124.73,11.59,1.52
399,Dawson Creek,1,CA,1592509566,37,55.77,-120.24,22.0,3.1
400,Nivala,0,FI,1592509615,88,63.92,24.97,13.89,2.68
401,Kieta,0,PG,1592509616,80,-6.22,155.63,25.98,1.42
402,Lubango,0,AO,1592509616,45,-14.92,13.49,12.86,2.6
403,Nanortalik,96,GL,1592509616,80,60.14,-45.24,4.53,3.0
404,Catuday,17,PH,1592509617,77,16.29,119.81,27.88,1.6
405,Tommot,95,RU,1592509617,79,58.96,126.29,12.8,0.51
406,Peniche,0,PT,1592509399,75,39.36,-9.38,19.44,5.81
407,Shirokiy,94,RU,1592509617,94,49.76,129.52,9.63,3.25
408,Jacareacanga,66,BR,1592509354,47,-6.22,-57.75,32.57,1.8
409,Aklavik,75,CA,1592509617,67,68.22,-135.01,15.0,2.6
410,Igarka,100,RU,1592509618,55,67.47,86.58,7.92,5.19
411,Sur,1,OM,1592509618,75,22.57,59.53,29.01,6.89
412,Mareeba,49,AU,1592509618,92,-17.0,145.43,21.11,0.45
413,Kapoeta,100,SS,1592509618,76,4.77,33.59,24.43,3.82
414,Zaozyornoye,38,UA,1592509480,82,45.16,33.28,20.51,2.18
415,Yenagoa,100,NG,1592509618,94,4.92,6.26,23.88,1.95
416,Concepción del Uruguay,65,AR,1592509618,76,-32.48,-58.24,17.22,1.79
417,Flagstaff,1,US,1592509619,19,35.2,-111.65,26.11,5.7
418,Kahului,20,US,1592509619,54,20.89,-156.47,29.0,10.8
419,Batemans Bay,0,AU,1592509619,93,-35.72,150.18,6.67,2.44
420,Durban,60,ZA,1592509619,73,-29.86,31.03,20.56,1.34
421,Sayyan,64,YE,1592509619,31,15.17,44.32,21.53,1.24
422,Vikulovo,32,RU,1592509619,90,56.82,70.61,5.21,3.52
423,Dustlik,0,UZ,1592509619,26,40.52,68.04,19.79,1.5
424,Ābdānān,0,IR,1592509620,16,32.99,47.42,29.0,6.06
425,Athani,100,IN,1592509620,82,16.73,75.07,23.6,7.37
426,Noumea,89,NC,1592509092,93,-22.28,166.46,17.0,1.0
427,Sikeston,1,US,1592509620,40,36.88,-89.59,30.0,1.43
428,Eirunepé,100,BR,1592509396,54,-6.66,-69.87,31.21,1.22
429,Key West,40,US,1592509620,70,24.56,-81.78,32.0,1.5
430,Staroshcherbinovskaya,100,RU,1592509621,61,46.63,38.67,21.39,4.48
431,Ketchikan,90,US,1592509621,100,55.34,-131.65,15.0,9.8
432,Victor Harbor,0,AU,1592509621,60,-35.57,138.62,14.44,0.45
433,Jiayuguan City,72,CN,1592509621,21,39.82,98.3,21.94,1.6
434,Pevek,17,RU,1592509621,71,69.7,170.31,5.05,3.97
435,Ereymentau,100,KZ,1592509621,77,51.62,73.1,9.05,2.76
436,Los Llanos de Aridane,20,ES,1592509621,78,28.66,-17.92,23.0,6.2
437,Korla,29,CN,1592509622,30,41.76,86.15,24.28,8.72
438,Flin Flon,90,CA,1592509622,87,54.77,-101.86,6.0,6.7
439,Ostrovnoy,100,RU,1592509421,63,68.05,39.51,13.7,3.56
440,Biak,68,ID,1592509622,82,-0.91,122.88,25.07,3.11
441,Erenhot,0,CN,1592509461,52,43.65,111.98,19.89,3.82
442,Lichuan,100,CN,1592509623,98,30.3,108.85,18.38,1.03
443,Strezhevoy,50,RU,1592509623,65,60.73,77.59,8.0,3.0
444,Tandil,14,AR,1592509623,46,-37.32,-59.13,16.11,3.13
445,Alyangula,9,AU,1592509623,94,-13.85,136.42,20.0,5.54
446,Nouadhibou,0,MR,1592509429,73,20.93,-17.03,23.0,8.7
447,Liverpool,75,GB,1592509602,93,53.41,-2.98,14.0,2.6
448,Kailua,75,US,1592509478,69,21.4,-157.74,27.0,5.7
449,Bombarral,1,PT,1592509624,75,39.27,-9.16,19.44,5.36
450,Dondo,75,MZ,1592509624,93,-19.61,34.74,19.0,3.6
451,Pucallpa,75,PE,1592509482,52,-8.38,-74.55,33.0,1.5
452,Bonthe,100,SL,1592509624,87,7.53,-12.51,26.13,3.91
453,Médéa,40,DZ,1592509624,88,36.26,2.75,22.0,4.6
454,Port Shepstone,0,ZA,1592509624,74,-30.74,30.45,15.06,3.52
455,Elk Plain,1,US,1592509625,52,47.05,-122.4,22.22,2.1
456,Yulara,0,AU,1592509432,45,-25.24,130.99,6.0,3.6
457,Lukovetskiy,20,RU,1592509625,59,64.3,41.92,16.0,2.0
458,Kyshtovka,41,RU,1592509625,85,56.55,76.63,5.31,3.74
459,Berdychiv,88,UA,1592509625,87,49.9,28.6,18.1,5.61
460,Lumsden,90,CA,1592509625,93,50.65,-104.87,8.89,5.7
461,Katy,20,US,1592509443,41,29.79,-95.82,35.56,4.6
462,Furth im Wald,41,DE,1592509626,86,49.31,12.84,15.56,0.89
463,Sakata,100,JP,1592509626,78,38.92,139.85,19.04,2.35
464,Pimentel,44,PE,1592509626,60,-6.84,-79.93,23.0,7.7
465,North Bend,1,US,1592509352,68,43.41,-124.22,27.78,7.7
466,Moog,100,PH,1592509626,96,8.6,124.47,22.78,2.68
467,Megion,39,RU,1592509626,65,61.03,76.11,8.0,3.0
468,São José da Coroa Grande,12,BR,1592509626,80,-8.9,-35.15,25.64,4.74
469,Kranuan,75,TH,1592509627,88,16.71,103.08,26.0,1.5
470,Haimen,100,CN,1592509627,100,23.19,116.61,26.0,1.0
471,Batagay-Alyta,3,RU,1592509359,42,67.8,130.41,20.66,0.54
472,Szczytno,62,PL,1592509627,94,53.56,20.99,19.05,2.81
473,São João da Barra,44,BR,1592509627,61,-21.64,-41.05,25.0,6.2
474,Caramay,100,PH,1592509627,77,10.18,119.24,27.01,1.44
475,Wiarton,20,CA,1592509628,57,44.74,-81.13,25.0,2.1
476,Okakarara,0,NA,1592509628,51,-20.58,17.43,10.01,3.24
477,Camacha,20,PT,1592509437,73,33.08,-16.33,22.0,4.1
478,Ust'-Ilimsk,0,RU,1592509628,79,58.0,102.66,9.39,2.36
479,Maniitsoq,0,GL,1592509628,80,65.42,-52.9,4.69,6.97
480,Japura,71,ID,1592509628,96,-0.32,102.35,23.11,1.17
481,Dūkštas,47,LT,1592509629,90,55.53,26.33,19.32,2.68
482,Turkmenabat,0,TM,1592509629,30,39.07,63.58,22.0,3.1
483,Portland,57,US,1592509224,64,45.52,-122.68,22.78,0.45
484,Bagdarin,0,RU,1592509462,88,54.43,113.6,4.9,1.4
485,Nassau,90,US,1592509629,73,40.75,-73.58,25.56,4.6
486,Sobolevo,0,RU,1592509410,86,54.43,31.9,19.6,2.29
487,Hasaki,90,JP,1592509629,93,35.73,140.83,18.0,3.1
488,Port Macquarie,67,AU,1592509630,97,-31.43,152.92,11.67,0.97
489,Qinhuangdao,0,CN,1592509630,63,39.93,119.59,21.1,2.37
490,Ukiah,1,US,1592509630,19,39.15,-123.21,32.78,2.1
491,Tavricheskoye,6,RU,1592509630,66,54.59,73.64,9.0,2.0
492,Lundazi,0,ZM,1592509630,78,-12.29,33.18,13.91,3.55
493,Zyryanka,59,RU,1592509630,35,65.75,150.85,24.11,3.3
494,Waingapu,7,ID,1592509631,83,-9.66,120.26,24.17,5.4
495,Bundaberg,90,AU,1592509631,93,-24.85,152.35,17.22,5.7
496,Tawang Town,100,IN,1592509631,78,27.58,91.87,13.61,0.76
497,Ola,16,RU,1592509389,87,59.58,151.28,10.21,0.27
498,Carupano,5,VE,1592509631,70,10.67,-63.26,28.62,5.74
499,Dukat,100,RU,1592509434,45,62.55,155.55,16.01,0.94
500,Chitipa,4,MW,1592509631,95,-9.7,33.27,12.6,2.39
501,Ndélé,100,CF,1592509631,87,8.41,20.65,23.0,2.03
502,Mayo,1,US,1592509632,73,38.89,-76.51,27.78,4.1
503,Porteirinha,0,BR,1592509632,56,-15.74,-43.03,22.52,3.62
504,Erzin,44,TR,1592509334,83,36.96,36.2,23.33,0.45
505,Sambava,100,MG,1592509439,85,-14.27,50.17,22.1,8.0
506,Pljevlja,41,ME,1592509632,93,43.33,19.33,13.0,1.5
507,Noyabrsk,0,RU,1592509632,76,63.2,75.45,3.18,5.47
508,Boddam,90,GB,1592509633,82,57.47,-1.78,13.33,3.1
509,Camargo,90,MX,1592509633,17,27.67,-105.17,34.19,2.37
510,Felipe Carrillo Puerto,100,MX,1592509633,82,19.58,-88.05,26.7,1.21
511,Bud,1,US,1592509633,39,39.45,-86.18,29.44,2.6
512,Cortez,1,US,1592509454,15,37.35,-108.59,27.0,5.48
513,George,0,ZA,1592509634,48,-33.96,22.46,16.0,2.1
514,Ust-Maya,0,RU,1592509634,78,60.42,134.53,14.1,1.15
515,Kedrovyy,40,RU,1592509634,93,56.17,91.82,15.0,6.0
516,Karpathos,0,GR,1592509430,83,35.51,27.21,23.0,5.7
517,Palana,51,RU,1592509634,92,59.12,159.97,8.36,0.41
518,Guozhen,24,CN,1592509634,57,34.37,107.36,21.61,0.82
519,Deputatsky,42,RU,1592509634,46,69.3,139.9,21.57,0.39
520,Berlevåg,75,NO,1592509635,81,70.86,29.09,8.0,10.8
521,Ust'-Barguzin,0,RU,1592509635,63,53.45,108.98,7.41,1.21
522,Wahiawā,90,US,1592509635,83,21.5,-158.02,26.0,2.6
523,Jiuquan,80,CN,1592509485,21,39.74,98.52,22.42,1.84
524,Rūdbār,0,AF,1592509635,13,30.15,62.6,30.92,6.06
525,Puerto Baquerizo Moreno,20,EC,1592509635,73,-0.9,-89.6,25.0,8.2
526,Am Timan,97,TD,1592509636,63,11.03,20.28,25.79,3.22
527,Logan Lake,20,CA,1592509636,46,50.5,-120.8,22.22,2.1
528,Whitecourt,75,CA,1592509636,62,54.15,-115.69,15.0,1.5
529,Bulungu,90,CD,1592509636,46,-4.55,18.6,21.25,0.17
530,Qandala,22,SO,1592509636,50,11.47,49.87,32.85,2.22
531,Port-Cartier,75,CA,1592509636,39,50.03,-66.87,28.0,2.6
532,Dubbo,40,AU,1592509526,93,-32.25,148.62,9.0,4.1
533,Hervey Bay,16,AU,1592509637,95,-25.3,152.85,16.67,6.26
534,Srostki,28,RU,1592509637,75,52.42,85.7,11.84,3.1
535,Aden,53,YE,1592509523,64,12.78,45.04,31.38,2.67
536,Iquitos,75,PE,1592509637,70,-3.75,-73.25,30.0,2.6
537,Bonavista,100,CA,1592509637,81,48.65,-53.11,16.67,4.02
